{"class":"VERSION","release":"3.16","rev":"3.16-4","proto_major":3,"proto_minor":11}
{"class":"DEVICES","devices":[{"class":"DEVICE","path":"/dev/ttyACM0","driver":"MTK-3301","subtype":"AXN_1.30-B_1.3_C01-0008","activated":"2018-04-10T18:57:28.917Z","flags":1,"native":0,"bps":9600,"parity":"N","stopbits":1,"cycle":1.00,"mincycle":0.20}]}
{"class":"WATCH","enable":true,"json":true,"nmea":false,"raw":0,"scaled":false,"timing":false,"split24":false,"pps":false}
{"class":"TPV","device":"/dev/ttyACM0","mode":2,"time":"2018-04-10T18:57:27.000Z","ept":0.005,"lat":59.313341667,"lon":18.188281667,"epx":11.172,"epy":9.777,"track":305.0400,"speed":0.005}
{"class":"TPV","device":"/dev/ttyACM0","mode":3,"time":"2018-04-10T18:57:28.000Z","ept":0.005,"lat":59.313341667,"lon":18.188281667,"alt":59.300,"epx":2.793,"epy":2.444,"epv":7.590,"speed":0.000,"eps":13.96}
{"class":"SKY","device":"/dev/ttyACM0","xdop":0.74,"ydop":0.65,"vdop":1.32,"tdop":0.90,"hdop":1.00,"gdop":2.03,"pdop":1.65,"satellites":[{"PRN":21,"el":71,"az":103,"ss":41,"used":true},{"PRN":16,"el":61,"az":241,"ss":39,"used":true},{"PRN":20,"el":49,"az":98,"ss":27,"used":true},{"PRN":27,"el":43,"az":282,"ss":45,"used":true},{"PRN":26,"el":43,"az":197,"ss":45,"used":true},{"PRN":123,"el":21,"az":164,"ss":40,"used":false},{"PRN":7,"el":15,"az":336,"ss":33,"used":true},{"PRN":10,"el":15,"az":174,"ss":38,"used":true},{"PRN":29,"el":13,"az":108,"ss":28,"used":true},{"PRN":13,"el":11,"az":53,"ss":0,"used":false},{"PRN":15,"el":11,"az":85,"ss":22,"used":false},{"PRN":8,"el":5,"az":287,"ss":0,"used":false},{"PRN":5,"el":3,"az":27,"ss":0,"used":false},{"PRN":30,"el":3,"az":358,"ss":0,"used":false}]}
{"class":"TPV","device":"/dev/ttyACM0","mode":3,"time":"2018-04-10T18:57:28.000Z","ept":0.005,"lat":59.313341667,"lon":18.188281667,"alt":59.300,"epx":2.793,"epy":2.444,"epv":7.590,"track":305.0400,"speed":0.005,"climb":0.000,"eps":13.96}
{"class":"TPV","device":"/dev/ttyACM0","mode":3,"time":"2018-04-10T18:57:29.000Z","ept":0.005,"lat":59.313341667,"lon":18.188281667,"alt":59.300,"epx":2.793,"epy":2.444,"epv":7.590,"speed":0.000,"climb":0.000,"eps":5.59,"epc":15.18}
{"class":"TPV","device":"/dev/ttyACM0","mode":3,"time":"2018-04-10T18:57:29.000Z","ept":0.005,"lat":59.313341667,"lon":18.188281667,"alt":59.300,"epx":2.793,"epy":2.444,"epv":7.590,"track":305.0400,"speed":0.005,"climb":0.000,"eps":5.59,"epc":15.18}
{"class":"TPV","device":"/dev/ttyACM0","mode":3,"time":"2018-04-10T18:57:30.000Z","ept":0.005,"lat":59.313341667,"lon":18.188281667,"alt":59.300,"epx":2.793,"epy":2.444,"epv":7.590,"speed":0.000,"climb":0.000,"eps":5.59,"epc":15.18}
{"class":"TPV","device":"/dev/ttyACM0","mode":3,"time":"2018-04-10T18:57:30.000Z","ept":0.005,"lat":59.313341667,"lon":18.188281667,"alt":59.300,"epx":2.793,"epy":2.444,"epv":7.590,"track":305.0400,"speed":0.005,"climb":0.000,"eps":5.59,"epc":15.18}
{"class":"TPV","device":"/dev/ttyACM0","mode":3,"time":"2018-04-10T18:57:31.000Z","ept":0.005,"lat":59.313341667,"lon":18.188281667,"alt":59.300,"epx":2.793,"epy":2.444,"epv":7.590,"speed":0.000,"climb":0.000,"eps":5.59,"epc":15.18}
{"class":"TPV","device":"/dev/ttyACM0","mode":3,"time":"2018-04-10T18:57:31.000Z","ept":0.005,"lat":59.313341667,"lon":18.188281667,"alt":59.300,"epx":2.793,"epy":2.444,"epv":7.590,"track":305.0400,"speed":0.010,"climb":0.000,"eps":5.59,"epc":15.18}
{"class":"TPV","device":"/dev/ttyACM0","mode":3,"time":"2018-04-10T18:57:32.000Z","ept":0.005,"lat":59.313341667,"lon":18.188281667,"alt":59.300,"epx":2.793,"epy":2.444,"epv":7.590,"speed":0.000,"climb":0.000,"eps":5.59,"epc":15.18}
{"class":"TPV","device":"/dev/ttyACM0","mode":3,"time":"2018-04-10T18:57:32.000Z","ept":0.005,"lat":59.313341667,"lon":18.188281667,"alt":59.300,"epx":2.793,"epy":2.444,"epv":7.590,"track":305.0400,"speed":0.010,"climb":0.000,"eps":5.59,"epc":15.18}
{"class":"TPV","device":"/dev/ttyACM0","mode":3,"time":"2018-04-10T18:57:33.000Z","ept":0.005,"lat":59.313341667,"lon":18.188281667,"alt":59.300,"epx":2.793,"epy":2.444,"epv":7.590,"speed":0.000,"climb":0.000,"eps":5.59,"epc":15.18}
{"class":"SKY","device":"/dev/ttyACM0","xdop":0.74,"ydop":0.65,"vdop":1.31,"tdop":0.90,"hdop":1.00,"gdop":2.03,"pdop":1.65,"satellites":[{"PRN":21,"el":71,"az":103,"ss":41,"used":true},{"PRN":16,"el":61,"az":241,"ss":39,"used":true},{"PRN":20,"el":49,"az":98,"ss":29,"used":true},{"PRN":27,"el":43,"az":282,"ss":45,"used":true},{"PRN":26,"el":43,"az":197,"ss":44,"used":true},{"PRN":123,"el":21,"az":164,"ss":40,"used":false},{"PRN":7,"el":15,"az":336,"ss":33,"used":true},{"PRN":10,"el":15,"az":174,"ss":38,"used":true},{"PRN":29,"el":13,"az":108,"ss":28,"used":true},{"PRN":13,"el":11,"az":53,"ss":0,"used":false},{"PRN":15,"el":11,"az":85,"ss":24,"used":false},{"PRN":8,"el":5,"az":287,"ss":0,"used":false},{"PRN":5,"el":3,"az":27,"ss":0,"used":false},{"PRN":30,"el":3,"az":358,"ss":0,"used":false}]}
{"class":"TPV","device":"/dev/ttyACM0","mode":3,"time":"2018-04-10T18:57:33.000Z","ept":0.005,"lat":59.313341667,"lon":18.188281667,"alt":59.300,"epx":2.793,"epy":2.444,"epv":7.590,"track":305.0400,"speed":0.010,"climb":0.000,"eps":5.59,"epc":15.18}
{"class":"TPV","device":"/dev/ttyACM0","mode":3,"time":"2018-04-10T18:57:34.000Z","ept":0.005,"lat":59.313341667,"lon":18.188281667,"alt":59.300,"epx":2.793,"epy":2.444,"epv":7.533,"speed":0.000,"climb":0.000,"eps":5.59,"epc":15.12}
{"class":"TPV","device":"/dev/ttyACM0","mode":3,"time":"2018-04-10T18:57:34.000Z","ept":0.005,"lat":59.313341667,"lon":18.188281667,"alt":59.300,"epx":2.793,"epy":2.444,"epv":7.533,"track":305.0400,"speed":0.005,"climb":0.000,"eps":5.59,"epc":15.12}
{"class":"TPV","device":"/dev/ttyACM0","mode":3,"time":"2018-04-10T18:57:35.000Z","ept":0.005,"lat":59.313341667,"lon":18.188281667,"alt":59.300,"epx":2.793,"epy":2.444,"epv":7.590,"speed":0.000,"climb":0.000,"eps":5.59,"epc":15.12}
{"class":"TPV","device":"/dev/ttyACM0","mode":3,"time":"2018-04-10T18:57:35.000Z","ept":0.005,"lat":59.313341667,"lon":18.188281667,"alt":59.300,"epx":2.793,"epy":2.444,"epv":7.590,"track":305.0400,"speed":0.005,"climb":0.000,"eps":5.59,"epc":15.12}
{"class":"TPV","device":"/dev/ttyACM0","mode":3,"time":"2018-04-10T18:57:36.000Z","ept":0.005,"lat":59.313341667,"lon":18.188281667,"alt":59.300,"epx":2.793,"epy":2.444,"epv":7.590,"speed":0.000,"climb":0.000,"eps":5.59,"epc":15.18}
{"class":"TPV","device":"/dev/ttyACM0","mode":3,"time":"2018-04-10T18:57:36.000Z","ept":0.005,"lat":59.313341667,"lon":18.188281667,"alt":59.300,"epx":2.793,"epy":2.444,"epv":7.590,"track":305.0400,"speed":0.005,"climb":0.000,"eps":5.59,"epc":15.18}
{"class":"TPV","device":"/dev/ttyACM0","mode":3,"time":"2018-04-10T18:57:37.000Z","ept":0.005,"lat":59.313341667,"lon":18.188281667,"alt":59.300,"epx":2.793,"epy":2.444,"epv":7.590,"speed":0.000,"climb":0.000,"eps":5.59,"epc":15.18}
{"class":"TPV","device":"/dev/ttyACM0","mode":3,"time":"2018-04-10T18:57:37.000Z","ept":0.005,"lat":59.313341667,"lon":18.188281667,"alt":59.300,"epx":2.793,"epy":2.444,"epv":7.590,"track":305.0400,"speed":0.010,"climb":0.000,"eps":5.59,"epc":15.18}
{"class":"TPV","device":"/dev/ttyACM0","mode":3,"time":"2018-04-10T18:57:38.000Z","ept":0.005,"lat":59.313341667,"lon":18.188281667,"alt":59.300,"epx":2.793,"epy":2.444,"epv":7.533,"speed":0.000,"climb":0.000,"eps":5.59,"epc":15.12}
{"class":"SKY","device":"/dev/ttyACM0","xdop":0.74,"ydop":0.65,"vdop":1.32,"tdop":0.90,"hdop":1.00,"gdop":2.03,"pdop":1.65,"satellites":[{"PRN":21,"el":71,"az":103,"ss":41,"used":true},{"PRN":16,"el":61,"az":241,"ss":40,"used":true},{"PRN":20,"el":49,"az":98,"ss":29,"used":true},{"PRN":27,"el":43,"az":282,"ss":46,"used":true},{"PRN":26,"el":43,"az":197,"ss":44,"used":true},{"PRN":123,"el":21,"az":164,"ss":40,"used":false},{"PRN":7,"el":15,"az":336,"ss":32,"used":true},{"PRN":10,"el":15,"az":174,"ss":38,"used":true},{"PRN":29,"el":13,"az":108,"ss":28,"used":true},{"PRN":13,"el":11,"az":53,"ss":0,"used":false},{"PRN":15,"el":11,"az":85,"ss":24,"used":false},{"PRN":8,"el":5,"az":287,"ss":0,"used":false},{"PRN":5,"el":3,"az":27,"ss":0,"used":false},{"PRN":30,"el":3,"az":358,"ss":0,"used":false}]}
{"class":"TPV","device":"/dev/ttyACM0","mode":3,"time":"2018-04-10T18:57:38.000Z","ept":0.005,"lat":59.313341667,"lon":18.188281667,"alt":59.300,"epx":2.793,"epy":2.444,"epv":7.533,"track":305.0400,"speed":0.015,"climb":0.000,"eps":5.59,"epc":15.12}
{"class":"TPV","device":"/dev/ttyACM0","mode":3,"time":"2018-04-10T18:57:39.000Z","ept":0.005,"lat":59.313341667,"lon":18.188281667,"alt":59.300,"epx":2.793,"epy":2.444,"epv":7.590,"speed":0.000,"climb":0.000,"eps":5.59,"epc":15.12}
{"class":"TPV","device":"/dev/ttyACM0","mode":3,"time":"2018-04-10T18:57:39.000Z","ept":0.005,"lat":59.313341667,"lon":18.188281667,"alt":59.300,"epx":2.793,"epy":2.444,"epv":7.590,"track":305.0400,"speed":0.015,"climb":0.000,"eps":5.59,"epc":15.12}
{"class":"TPV","device":"/dev/ttyACM0","mode":3,"time":"2018-04-10T18:57:40.000Z","ept":0.005,"lat":59.313341667,"lon":18.188281667,"alt":59.300,"epx":2.793,"epy":2.444,"epv":7.590,"speed":0.000,"climb":0.000,"eps":5.59,"epc":15.18}
{"class":"TPV","device":"/dev/ttyACM0","mode":3,"time":"2018-04-10T18:57:40.000Z","ept":0.005,"lat":59.313341667,"lon":18.188281667,"alt":59.300,"epx":2.793,"epy":2.444,"epv":7.590,"track":305.0400,"speed":0.010,"climb":0.000,"eps":5.59,"epc":15.18}
{"class":"TPV","device":"/dev/ttyACM0","mode":3,"time":"2018-04-10T18:57:41.000Z","ept":0.005,"lat":59.313341667,"lon":18.188281667,"alt":59.300,"epx":2.793,"epy":2.444,"epv":7.590,"speed":0.000,"climb":0.000,"eps":5.59,"epc":15.18}
{"class":"TPV","device":"/dev/ttyACM0","mode":3,"time":"2018-04-10T18:57:41.000Z","ept":0.005,"lat":59.313341667,"lon":18.188281667,"alt":59.300,"epx":2.793,"epy":2.444,"epv":7.590,"track":305.0400,"speed":0.015,"climb":0.000,"eps":5.59,"epc":15.18}
{"class":"TPV","device":"/dev/ttyACM0","mode":3,"time":"2018-04-10T18:57:42.000Z","ept":0.005,"lat":59.313341667,"lon":18.188283333,"alt":59.300,"epx":2.793,"epy":2.444,"epv":7.590,"speed":0.095,"climb":0.000,"eps":5.59,"epc":15.18}
{"class":"TPV","device":"/dev/ttyACM0","mode":3,"time":"2018-04-10T18:57:42.000Z","ept":0.005,"lat":59.313341667,"lon":18.188283333,"alt":59.300,"epx":2.793,"epy":2.444,"epv":7.590,"track":305.0400,"speed":0.005,"climb":0.000,"eps":5.59,"epc":15.18}
{"class":"TPV","device":"/dev/ttyACM0","mode":3,"time":"2018-04-10T18:57:43.000Z","ept":0.005,"lat":59.313341667,"lon":18.188283333,"alt":59.300,"epx":2.793,"epy":2.444,"epv":7.590,"speed":0.000,"climb":0.000,"eps":5.59,"epc":15.18}
{"class":"SKY","device":"/dev/ttyACM0","xdop":0.74,"ydop":0.65,"vdop":1.32,"tdop":0.90,"hdop":1.00,"gdop":2.03,"pdop":1.66,"satellites":[{"PRN":21,"el":71,"az":103,"ss":41,"used":true},{"PRN":16,"el":61,"az":241,"ss":40,"used":true},{"PRN":20,"el":49,"az":98,"ss":27,"used":true},{"PRN":27,"el":43,"az":282,"ss":46,"used":true},{"PRN":26,"el":43,"az":197,"ss":44,"used":true},{"PRN":123,"el":21,"az":164,"ss":40,"used":false},{"PRN":7,"el":15,"az":336,"ss":32,"used":true},{"PRN":10,"el":15,"az":174,"ss":39,"used":true},{"PRN":29,"el":13,"az":108,"ss":28,"used":true},{"PRN":13,"el":11,"az":53,"ss":0,"used":false},{"PRN":15,"el":11,"az":85,"ss":24,"used":false},{"PRN":8,"el":5,"az":288,"ss":0,"used":false},{"PRN":30,"el":3,"az":358,"ss":0,"used":false},{"PRN":5,"el":2,"az":27,"ss":0,"used":false}]}
{"class":"TPV","device":"/dev/ttyACM0","mode":3,"time":"2018-04-10T18:57:43.000Z","ept":0.005,"lat":59.313341667,"lon":18.188283333,"alt":59.300,"epx":2.793,"epy":2.444,"epv":7.590,"track":305.0400,"speed":0.005,"climb":0.000,"eps":5.59,"epc":15.18}
{"class":"TPV","device":"/dev/ttyACM0","mode":3,"time":"2018-04-10T18:57:44.000Z","ept":0.005,"lat":59.313341667,"lon":18.188283333,"alt":59.300,"epx":2.793,"epy":2.444,"epv":7.590,"speed":0.000,"climb":0.000,"eps":5.59,"epc":15.18}
{"class":"TPV","device":"/dev/ttyACM0","mode":3,"time":"2018-04-10T18:57:44.000Z","ept":0.005,"lat":59.313341667,"lon":18.188283333,"alt":59.300,"epx":2.793,"epy":2.444,"epv":7.590,"track":305.0400,"speed":0.005,"climb":0.000,"eps":5.59,"epc":15.18}
{"class":"TPV","device":"/dev/ttyACM0","mode":3,"time":"2018-04-10T18:57:45.000Z","ept":0.005,"lat":59.313341667,"lon":18.188283333,"alt":59.400,"epx":2.793,"epy":2.444,"epv":7.590,"speed":0.000,"climb":0.100,"eps":5.59,"epc":15.18}
{"class":"TPV","device":"/dev/ttyACM0","mode":3,"time":"2018-04-10T18:57:45.000Z","ept":0.005,"lat":59.313341667,"lon":18.188283333,"alt":59.400,"epx":2.793,"epy":2.444,"epv":7.590,"track":305.0400,"speed":0.010,"climb":0.100,"eps":5.59,"epc":15.18}
{"class":"TPV","device":"/dev/ttyACM0","mode":3,"time":"2018-04-10T18:57:46.000Z","ept":0.005,"lat":59.313341667,"lon":18.188283333,"alt":59.400,"epx":2.793,"epy":2.444,"epv":7.590,"speed":0.000,"climb":0.000,"eps":5.59,"epc":15.18}
{"class":"TPV","device":"/dev/ttyACM0","mode":3,"time":"2018-04-10T18:57:46.000Z","ept":0.005,"lat":59.313341667,"lon":18.188283333,"alt":59.400,"epx":2.793,"epy":2.444,"epv":7.590,"track":305.0400,"speed":0.005,"climb":0.000,"eps":5.59,"epc":15.18}
{"class":"TPV","device":"/dev/ttyACM0","mode":3,"time":"2018-04-10T18:57:47.000Z","ept":0.005,"lat":59.313341667,"lon":18.188283333,"alt":59.400,"epx":2.793,"epy":2.444,"epv":8.223,"speed":0.000,"climb":0.000,"eps":5.59,"epc":15.81}
{"class":"TPV","device":"/dev/ttyACM0","mode":3,"time":"2018-04-10T18:57:47.000Z","ept":0.005,"lat":59.313341667,"lon":18.188283333,"alt":59.400,"epx":2.793,"epy":2.444,"epv":8.223,"track":305.0400,"speed":0.005,"climb":0.000,"eps":5.59,"epc":15.81}
{"class":"TPV","device":"/dev/ttyACM0","mode":3,"time":"2018-04-10T18:57:48.000Z","ept":0.005,"lat":59.313341667,"lon":18.188283333,"alt":59.400,"epx":2.793,"epy":2.444,"epv":8.223,"speed":0.000,"climb":0.000,"eps":5.59,"epc":16.45}
{"class":"SKY","device":"/dev/ttyACM0","xdop":0.74,"ydop":0.65,"vdop":1.43,"tdop":0.90,"hdop":1.12,"gdop":2.03,"pdop":1.82,"satellites":[{"PRN":21,"el":71,"az":103,"ss":41,"used":true},{"PRN":16,"el":61,"az":241,"ss":40,"used":true},{"PRN":20,"el":49,"az":98,"ss":22,"used":false},{"PRN":27,"el":43,"az":282,"ss":46,"used":true},{"PRN":26,"el":43,"az":197,"ss":44,"used":true},{"PRN":123,"el":21,"az":164,"ss":40,"used":false},{"PRN":7,"el":15,"az":336,"ss":32,"used":true},{"PRN":10,"el":15,"az":174,"ss":39,"used":true},{"PRN":29,"el":13,"az":108,"ss":28,"used":true},{"PRN":13,"el":12,"az":53,"ss":0,"used":false},{"PRN":15,"el":11,"az":85,"ss":24,"used":false},{"PRN":8,"el":5,"az":288,"ss":0,"used":false},{"PRN":30,"el":3,"az":358,"ss":0,"used":false},{"PRN":5,"el":2,"az":27,"ss":0,"used":false}]}
{"class":"TPV","device":"/dev/ttyACM0","mode":3,"time":"2018-04-10T18:57:48.000Z","ept":0.005,"lat":59.313341667,"lon":18.188283333,"alt":59.400,"epx":2.793,"epy":2.444,"epv":8.223,"track":305.0400,"speed":0.005,"climb":0.000,"eps":5.59,"epc":16.45}
{"class":"TPV","device":"/dev/ttyACM0","mode":3,"time":"2018-04-10T18:57:49.000Z","ept":0.005,"lat":59.313341667,"lon":18.188283333,"alt":59.400,"epx":2.793,"epy":2.444,"epv":8.223,"speed":0.000,"climb":0.000,"eps":5.59,"epc":16.45}
{"class":"TPV","device":"/dev/ttyACM0","mode":3,"time":"2018-04-10T18:57:49.000Z","ept":0.005,"lat":59.313341667,"lon":18.188283333,"alt":59.400,"epx":2.793,"epy":2.444,"epv":8.223,"track":305.0400,"speed":0.005,"climb":0.000,"eps":5.59,"epc":16.45}
{"class":"TPV","device":"/dev/ttyACM0","mode":3,"time":"2018-04-10T18:57:50.000Z","ept":0.005,"lat":59.313341667,"lon":18.188283333,"alt":59.400,"epx":2.793,"epy":2.444,"epv":8.223,"speed":0.000,"climb":0.000,"eps":5.59,"epc":16.45}
{"class":"TPV","device":"/dev/ttyACM0","mode":3,"time":"2018-04-10T18:57:50.000Z","ept":0.005,"lat":59.313341667,"lon":18.188283333,"alt":59.400,"epx":2.793,"epy":2.444,"epv":8.223,"track":305.0400,"speed":0.010,"climb":0.000,"eps":5.59,"epc":16.45}
{"class":"TPV","device":"/dev/ttyACM0","mode":3,"time":"2018-04-10T18:57:51.000Z","ept":0.005,"lat":59.313341667,"lon":18.188283333,"alt":59.400,"epx":2.793,"epy":2.444,"epv":7.590,"speed":0.000,"climb":0.000,"eps":5.59,"epc":15.81}
{"class":"TPV","device":"/dev/ttyACM0","mode":3,"time":"2018-04-10T18:57:51.000Z","ept":0.005,"lat":59.313341667,"lon":18.188283333,"alt":59.400,"epx":2.793,"epy":2.444,"epv":7.590,"track":305.0400,"speed":0.005,"climb":0.000,"eps":5.59,"epc":15.81}
{"class":"TPV","device":"/dev/ttyACM0","mode":3,"time":"2018-04-10T18:57:52.000Z","ept":0.005,"lat":59.313341667,"lon":18.188283333,"alt":59.400,"epx":2.793,"epy":2.444,"epv":8.223,"speed":0.000,"climb":0.000,"eps":5.59,"epc":15.81}
{"class":"TPV","device":"/dev/ttyACM0","mode":3,"time":"2018-04-10T18:57:52.000Z","ept":0.005,"lat":59.313341667,"lon":18.188283333,"alt":59.400,"epx":2.793,"epy":2.444,"epv":8.223,"track":305.0400,"speed":0.010,"climb":0.000,"eps":5.59,"epc":15.81}
{"class":"TPV","device":"/dev/ttyACM0","mode":3,"time":"2018-04-10T18:57:53.000Z","ept":0.005,"lat":59.313341667,"lon":18.188283333,"alt":59.400,"epx":2.793,"epy":2.444,"epv":8.223,"speed":0.000,"climb":0.000,"eps":5.59,"epc":16.45}
{"class":"SKY","device":"/dev/ttyACM0","xdop":0.74,"ydop":0.65,"vdop":1.43,"tdop":0.90,"hdop":1.12,"gdop":2.03,"pdop":1.82,"satellites":[{"PRN":21,"el":71,"az":103,"ss":41,"used":true},{"PRN":16,"el":60,"az":240,"ss":40,"used":true},{"PRN":20,"el":49,"az":98,"ss":21,"used":false},{"PRN":27,"el":43,"az":282,"ss":46,"used":true},{"PRN":26,"el":43,"az":197,"ss":43,"used":true},{"PRN":123,"el":21,"az":164,"ss":40,"used":false},{"PRN":7,"el":15,"az":336,"ss":32,"used":true},{"PRN":10,"el":15,"az":174,"ss":39,"used":true},{"PRN":29,"el":13,"az":108,"ss":29,"used":true},{"PRN":13,"el":12,"az":53,"ss":19,"used":false},{"PRN":15,"el":11,"az":85,"ss":21,"used":false},{"PRN":8,"el":5,"az":288,"ss":0,"used":false},{"PRN":30,"el":3,"az":358,"ss":0,"used":false},{"PRN":5,"el":2,"az":27,"ss":0,"used":false}]}
{"class":"TPV","device":"/dev/ttyACM0","mode":3,"time":"2018-04-10T18:57:53.000Z","ept":0.005,"lat":59.313341667,"lon":18.188283333,"alt":59.400,"epx":2.793,"epy":2.444,"epv":8.223,"track":305.0400,"speed":0.010,"climb":0.000,"eps":5.59,"epc":16.45}
{"class":"TPV","device":"/dev/ttyACM0","mode":3,"time":"2018-04-10T18:57:54.000Z","ept":0.005,"lat":59.313341667,"lon":18.188283333,"alt":59.400,"epx":2.793,"epy":2.444,"epv":8.223,"speed":0.000,"climb":0.000,"eps":5.59,"epc":16.45}
{"class":"TPV","device":"/dev/ttyACM0","mode":3,"time":"2018-04-10T18:57:54.000Z","ept":0.005,"lat":59.313341667,"lon":18.188283333,"alt":59.400,"epx":2.793,"epy":2.444,"epv":8.223,"track":305.0400,"speed":0.010,"climb":0.000,"eps":5.59,"epc":16.45}
{"class":"TPV","device":"/dev/ttyACM0","mode":3,"time":"2018-04-10T18:57:55.000Z","ept":0.005,"lat":59.313341667,"lon":18.188283333,"alt":59.400,"epx":2.793,"epy":2.444,"epv":8.223,"speed":0.000,"climb":0.000,"eps":5.59,"epc":16.45}
{"class":"TPV","device":"/dev/ttyACM0","mode":3,"time":"2018-04-10T18:57:55.000Z","ept":0.005,"lat":59.313341667,"lon":18.188283333,"alt":59.400,"epx":2.793,"epy":2.444,"epv":8.223,"track":305.0400,"speed":0.005,"climb":0.000,"eps":5.59,"epc":16.45}
{"class":"TPV","device":"/dev/ttyACM0","mode":3,"time":"2018-04-10T18:57:56.000Z","ept":0.005,"lat":59.313341667,"lon":18.188283333,"alt":59.400,"epx":2.793,"epy":2.444,"epv":8.223,"speed":0.000,"climb":0.000,"eps":5.59,"epc":16.45}
{"class":"TPV","device":"/dev/ttyACM0","mode":3,"time":"2018-04-10T18:57:56.000Z","ept":0.005,"lat":59.313341667,"lon":18.188283333,"alt":59.400,"epx":2.793,"epy":2.444,"epv":8.223,"track":305.0400,"speed":0.005,"climb":0.000,"eps":5.59,"epc":16.45}
{"class":"TPV","device":"/dev/ttyACM0","mode":3,"time":"2018-04-10T18:57:57.000Z","ept":0.005,"lat":59.313341667,"lon":18.188283333,"alt":59.400,"epx":2.793,"epy":2.444,"epv":8.223,"speed":0.000,"climb":0.000,"eps":5.59,"epc":16.45}
{"class":"TPV","device":"/dev/ttyACM0","mode":3,"time":"2018-04-10T18:57:57.000Z","ept":0.005,"lat":59.313341667,"lon":18.188283333,"alt":59.400,"epx":2.793,"epy":2.444,"epv":8.223,"track":305.0400,"speed":0.010,"climb":0.000,"eps":5.59,"epc":16.45}
{"class":"TPV","device":"/dev/ttyACM0","mode":3,"time":"2018-04-10T18:57:58.000Z","ept":0.005,"lat":59.313341667,"lon":18.188283333,"alt":59.400,"epx":2.793,"epy":2.444,"epv":8.223,"speed":0.000,"climb":0.000,"eps":5.59,"epc":16.45}
{"class":"SKY","device":"/dev/ttyACM0","xdop":0.74,"ydop":0.65,"vdop":1.43,"tdop":0.90,"hdop":1.12,"gdop":2.03,"pdop":1.82,"satellites":[{"PRN":21,"el":71,"az":102,"ss":41,"used":true},{"PRN":16,"el":60,"az":240,"ss":39,"used":true},{"PRN":20,"el":49,"az":98,"ss":18,"used":false},{"PRN":27,"el":43,"az":282,"ss":46,"used":true},{"PRN":26,"el":43,"az":197,"ss":43,"used":true},{"PRN":123,"el":21,"az":164,"ss":40,"used":false},{"PRN":7,"el":15,"az":336,"ss":32,"used":true},{"PRN":10,"el":15,"az":174,"ss":39,"used":true},{"PRN":29,"el":13,"az":108,"ss":31,"used":true},{"PRN":13,"el":12,"az":53,"ss":17,"used":false},{"PRN":15,"el":11,"az":85,"ss":19,"used":false},{"PRN":8,"el":5,"az":288,"ss":0,"used":false},{"PRN":30,"el":3,"az":358,"ss":0,"used":false},{"PRN":5,"el":2,"az":27,"ss":0,"used":false}]}
{"class":"TPV","device":"/dev/ttyACM0","mode":3,"time":"2018-04-10T18:57:58.000Z","ept":0.005,"lat":59.313341667,"lon":18.188283333,"alt":59.400,"epx":2.793,"epy":2.444,"epv":8.223,"track":305.0400,"speed":0.005,"climb":0.000,"eps":5.59,"epc":16.45}
{"class":"TPV","device":"/dev/ttyACM0","mode":3,"time":"2018-04-10T18:57:59.000Z","ept":0.005,"lat":59.313341667,"lon":18.188283333,"alt":59.400,"epx":2.793,"epy":2.444,"epv":8.223,"speed":0.000,"climb":0.000,"eps":5.59,"epc":16.45}
{"class":"TPV","device":"/dev/ttyACM0","mode":3,"time":"2018-04-10T18:57:59.000Z","ept":0.005,"lat":59.313341667,"lon":18.188283333,"alt":59.400,"epx":2.793,"epy":2.444,"epv":8.223,"track":305.0400,"speed":0.005,"climb":0.000,"eps":5.59,"epc":16.45}
{"class":"TPV","device":"/dev/ttyACM0","mode":3,"time":"2018-04-10T18:58:00.000Z","ept":0.005,"lat":59.313341667,"lon":18.188285000,"alt":59.400,"epx":2.793,"epy":2.444,"epv":8.223,"speed":0.095,"climb":0.000,"eps":5.59,"epc":16.45}
{"class":"TPV","device":"/dev/ttyACM0","mode":3,"time":"2018-04-10T18:58:00.000Z","ept":0.005,"lat":59.313341667,"lon":18.188285000,"alt":59.400,"epx":2.793,"epy":2.444,"epv":8.223,"track":305.0400,"speed":0.010,"climb":0.000,"eps":5.59,"epc":16.45}
{"class":"TPV","device":"/dev/ttyACM0","mode":3,"time":"2018-04-10T18:58:01.000Z","ept":0.005,"lat":59.313341667,"lon":18.188285000,"alt":59.400,"epx":2.793,"epy":2.444,"epv":8.223,"speed":0.000,"climb":0.000,"eps":5.59,"epc":16.45}
{"class":"TPV","device":"/dev/ttyACM0","mode":3,"time":"2018-04-10T18:58:01.000Z","ept":0.005,"lat":59.313341667,"lon":18.188285000,"alt":59.400,"epx":2.793,"epy":2.444,"epv":8.223,"track":305.0400,"speed":0.010,"climb":0.000,"eps":5.59,"epc":16.45}
{"class":"TPV","device":"/dev/ttyACM0","mode":3,"time":"2018-04-10T18:58:02.000Z","ept":0.005,"lat":59.313341667,"lon":18.188285000,"alt":59.400,"epx":2.793,"epy":2.444,"epv":8.223,"speed":0.000,"climb":0.000,"eps":5.59,"epc":16.45}
{"class":"TPV","device":"/dev/ttyACM0","mode":3,"time":"2018-04-10T18:58:02.000Z","ept":0.005,"lat":59.313341667,"lon":18.188285000,"alt":59.400,"epx":2.793,"epy":2.444,"epv":8.223,"track":305.0400,"speed":0.010,"climb":0.000,"eps":5.59,"epc":16.45}
{"class":"TPV","device":"/dev/ttyACM0","mode":3,"time":"2018-04-10T18:58:03.000Z","ept":0.005,"lat":59.313341667,"lon":18.188285000,"alt":59.400,"epx":2.793,"epy":2.444,"epv":8.223,"speed":0.000,"climb":0.000,"eps":5.59,"epc":16.45}
{"class":"SKY","device":"/dev/ttyACM0","xdop":0.74,"ydop":0.65,"vdop":1.43,"tdop":0.90,"hdop":1.12,"gdop":2.03,"pdop":1.82,"satellites":[{"PRN":21,"el":71,"az":102,"ss":41,"used":true},{"PRN":16,"el":60,"az":240,"ss":38,"used":true},{"PRN":20,"el":49,"az":98,"ss":18,"used":false},{"PRN":27,"el":44,"az":282,"ss":46,"used":true},{"PRN":26,"el":43,"az":197,"ss":43,"used":true},{"PRN":123,"el":21,"az":164,"ss":40,"used":false},{"PRN":7,"el":15,"az":336,"ss":32,"used":true},{"PRN":10,"el":15,"az":174,"ss":39,"used":true},{"PRN":29,"el":13,"az":108,"ss":32,"used":true},{"PRN":13,"el":12,"az":53,"ss":17,"used":false},{"PRN":15,"el":11,"az":85,"ss":20,"used":false},{"PRN":8,"el":5,"az":288,"ss":0,"used":false},{"PRN":30,"el":3,"az":358,"ss":0,"used":false},{"PRN":5,"el":2,"az":27,"ss":0,"used":false}]}
{"class":"TPV","device":"/dev/ttyACM0","mode":3,"time":"2018-04-10T18:58:03.000Z","ept":0.005,"lat":59.313341667,"lon":18.188285000,"alt":59.400,"epx":2.793,"epy":2.444,"epv":8.223,"track":305.0400,"speed":0.010,"climb":0.000,"eps":5.59,"epc":16.45}
{"class":"TPV","device":"/dev/ttyACM0","mode":3,"time":"2018-04-10T18:58:04.000Z","ept":0.005,"lat":59.313341667,"lon":18.188285000,"alt":59.400,"epx":2.793,"epy":2.444,"epv":8.223,"speed":0.000,"climb":0.000,"eps":5.59,"epc":16.45}
{"class":"TPV","device":"/dev/ttyACM0","mode":3,"time":"2018-04-10T18:58:04.000Z","ept":0.005,"lat":59.313341667,"lon":18.188285000,"alt":59.400,"epx":2.793,"epy":2.444,"epv":8.223,"track":305.0400,"speed":0.000,"climb":0.000,"eps":5.59,"epc":16.45}
{"class":"TPV","device":"/dev/ttyACM0","mode":3,"time":"2018-04-10T18:58:05.000Z","ept":0.005,"lat":59.313341667,"lon":18.188285000,"alt":59.400,"epx":2.793,"epy":2.444,"epv":8.223,"speed":0.000,"climb":0.000,"eps":5.59,"epc":16.45}
{"class":"TPV","device":"/dev/ttyACM0","mode":3,"time":"2018-04-10T18:58:05.000Z","ept":0.005,"lat":59.313341667,"lon":18.188285000,"alt":59.400,"epx":2.793,"epy":2.444,"epv":8.223,"track":305.0400,"speed":0.000,"climb":0.000,"eps":5.59,"epc":16.45}
{"class":"TPV","device":"/dev/ttyACM0","mode":3,"time":"2018-04-10T18:58:06.000Z","ept":0.005,"lat":59.313341667,"lon":18.188285000,"alt":59.400,"epx":2.793,"epy":2.444,"epv":8.223,"speed":0.000,"climb":0.000,"eps":5.59,"epc":16.45}
{"class":"TPV","device":"/dev/ttyACM0","mode":3,"time":"2018-04-10T18:58:06.000Z","ept":0.005,"lat":59.313341667,"lon":18.188285000,"alt":59.400,"epx":2.793,"epy":2.444,"epv":8.223,"track":305.0400,"speed":0.005,"climb":0.000,"eps":5.59,"epc":16.45}
{"class":"TPV","device":"/dev/ttyACM0","mode":3,"time":"2018-04-10T18:58:07.000Z","ept":0.005,"lat":59.313341667,"lon":18.188285000,"alt":59.400,"epx":2.793,"epy":2.444,"epv":8.223,"speed":0.000,"climb":0.000,"eps":5.59,"epc":16.45}
{"class":"TPV","device":"/dev/ttyACM0","mode":3,"time":"2018-04-10T18:58:07.000Z","ept":0.005,"lat":59.313341667,"lon":18.188285000,"alt":59.400,"epx":2.793,"epy":2.444,"epv":8.223,"track":305.0400,"speed":0.005,"climb":0.000,"eps":5.59,"epc":16.45}
{"class":"TPV","device":"/dev/ttyACM0","mode":3,"time":"2018-04-10T18:58:08.000Z","ept":0.005,"lat":59.313341667,"lon":18.188285000,"alt":59.400,"epx":2.793,"epy":2.444,"epv":8.223,"speed":0.000,"climb":0.000,"eps":5.59,"epc":16.45}
{"class":"SKY","device":"/dev/ttyACM0","xdop":0.74,"ydop":0.65,"vdop":1.44,"tdop":0.90,"hdop":1.13,"gdop":2.03,"pdop":1.82,"satellites":[{"PRN":21,"el":71,"az":102,"ss":41,"used":true},{"PRN":16,"el":60,"az":240,"ss":37,"used":true},{"PRN":20,"el":49,"az":98,"ss":19,"used":false},{"PRN":27,"el":44,"az":282,"ss":46,"used":true},{"PRN":26,"el":43,"az":197,"ss":43,"used":true},{"PRN":123,"el":21,"az":164,"ss":40,"used":false},{"PRN":7,"el":15,"az":336,"ss":32,"used":true},{"PRN":10,"el":15,"az":174,"ss":39,"used":true},{"PRN":29,"el":13,"az":108,"ss":34,"used":true},{"PRN":13,"el":12,"az":53,"ss":17,"used":false},{"PRN":15,"el":11,"az":85,"ss":20,"used":false},{"PRN":8,"el":5,"az":288,"ss":0,"used":false},{"PRN":30,"el":3,"az":358,"ss":0,"used":false},{"PRN":5,"el":2,"az":27,"ss":0,"used":false}]}
{"class":"TPV","device":"/dev/ttyACM0","mode":3,"time":"2018-04-10T18:58:08.000Z","ept":0.005,"lat":59.313341667,"lon":18.188285000,"alt":59.400,"epx":2.793,"epy":2.444,"epv":8.223,"track":305.0400,"speed":0.005,"climb":0.000,"eps":5.59,"epc":16.45}
{"class":"TPV","device":"/dev/ttyACM0","mode":3,"time":"2018-04-10T18:58:09.000Z","ept":0.005,"lat":59.313341667,"lon":18.188285000,"alt":59.400,"epx":2.793,"epy":2.444,"epv":8.280,"speed":0.000,"climb":0.000,"eps":5.59,"epc":16.50}
{"class":"TPV","device":"/dev/ttyACM0","mode":3,"time":"2018-04-10T18:58:09.000Z","ept":0.005,"lat":59.313341667,"lon":18.188285000,"alt":59.400,"epx":2.793,"epy":2.444,"epv":8.280,"track":305.0400,"speed":0.005,"climb":0.000,"eps":5.59,"epc":16.50}
{"class":"TPV","device":"/dev/ttyACM0","mode":3,"time":"2018-04-10T18:58:10.000Z","ept":0.005,"lat":59.313341667,"lon":18.188285000,"alt":59.400,"epx":2.793,"epy":2.444,"epv":8.223,"speed":0.000,"climb":0.000,"eps":5.59,"epc":16.50}
{"class":"TPV","device":"/dev/ttyACM0","mode":3,"time":"2018-04-10T18:58:10.000Z","ept":0.005,"lat":59.313341667,"lon":18.188285000,"alt":59.400,"epx":2.793,"epy":2.444,"epv":8.223,"track":305.0400,"speed":0.005,"climb":0.000,"eps":5.59,"epc":16.50}
{"class":"TPV","device":"/dev/ttyACM0","mode":3,"time":"2018-04-10T18:58:11.000Z","ept":0.005,"lat":59.313341667,"lon":18.188285000,"alt":59.400,"epx":2.793,"epy":2.444,"epv":8.223,"speed":0.000,"climb":0.000,"eps":5.59,"epc":16.45}
{"class":"TPV","device":"/dev/ttyACM0","mode":3,"time":"2018-04-10T18:58:11.000Z","ept":0.005,"lat":59.313341667,"lon":18.188285000,"alt":59.400,"epx":2.793,"epy":2.444,"epv":8.223,"track":305.0400,"speed":0.010,"climb":0.000,"eps":5.59,"epc":16.45}
{"class":"TPV","device":"/dev/ttyACM0","mode":3,"time":"2018-04-10T18:58:12.000Z","ept":0.005,"lat":59.313341667,"lon":18.188285000,"alt":59.400,"epx":2.793,"epy":2.444,"epv":8.223,"speed":0.000,"climb":0.000,"eps":5.59,"epc":16.45}
{"class":"TPV","device":"/dev/ttyACM0","mode":3,"time":"2018-04-10T18:58:12.000Z","ept":0.005,"lat":59.313341667,"lon":18.188285000,"alt":59.400,"epx":2.793,"epy":2.444,"epv":8.223,"track":305.0400,"speed":0.005,"climb":0.000,"eps":5.59,"epc":16.45}
{"class":"TPV","device":"/dev/ttyACM0","mode":3,"time":"2018-04-10T18:58:13.000Z","ept":0.005,"lat":59.313341667,"lon":18.188285000,"alt":59.400,"epx":2.793,"epy":2.444,"epv":8.223,"speed":0.000,"climb":0.000,"eps":5.59,"epc":16.45}
{"class":"SKY","device":"/dev/ttyACM0","xdop":0.74,"ydop":0.65,"vdop":1.43,"tdop":0.90,"hdop":0.97,"gdop":2.03,"pdop":1.73,"satellites":[{"PRN":21,"el":71,"az":102,"ss":41,"used":true},{"PRN":16,"el":60,"az":240,"ss":37,"used":true},{"PRN":20,"el":49,"az":98,"ss":22,"used":false},{"PRN":27,"el":44,"az":282,"ss":46,"used":true},{"PRN":26,"el":43,"az":197,"ss":43,"used":true},{"PRN":123,"el":21,"az":164,"ss":40,"used":false},{"PRN":7,"el":15,"az":336,"ss":33,"used":true},{"PRN":10,"el":15,"az":174,"ss":39,"used":true},{"PRN":29,"el":13,"az":108,"ss":34,"used":true},{"PRN":13,"el":12,"az":53,"ss":19,"used":true},{"PRN":15,"el":11,"az":85,"ss":21,"used":false},{"PRN":8,"el":5,"az":288,"ss":0,"used":false},{"PRN":30,"el":3,"az":358,"ss":0,"used":false},{"PRN":5,"el":2,"az":26,"ss":0,"used":false}]}
{"class":"TPV","device":"/dev/ttyACM0","mode":3,"time":"2018-04-10T18:58:13.000Z","ept":0.005,"lat":59.313341667,"lon":18.188285000,"alt":59.400,"epx":2.793,"epy":2.444,"epv":8.223,"track":305.0400,"speed":0.005,"climb":0.000,"eps":5.59,"epc":16.45}
{"class":"TPV","device":"/dev/ttyACM0","mode":3,"time":"2018-04-10T18:58:14.000Z","ept":0.005,"lat":59.313341667,"lon":18.188285000,"alt":59.400,"epx":2.793,"epy":2.444,"epv":8.223,"speed":0.000,"climb":0.000,"eps":5.59,"epc":16.45}
{"class":"TPV","device":"/dev/ttyACM0","mode":3,"time":"2018-04-10T18:58:14.000Z","ept":0.005,"lat":59.313341667,"lon":18.188285000,"alt":59.400,"epx":2.793,"epy":2.444,"epv":8.223,"track":305.0400,"speed":0.005,"climb":0.000,"eps":5.59,"epc":16.45}
{"class":"TPV","device":"/dev/ttyACM0","mode":3,"time":"2018-04-10T18:58:15.000Z","ept":0.005,"lat":59.313341667,"lon":18.188285000,"alt":59.400,"epx":2.793,"epy":2.444,"epv":8.223,"speed":0.000,"climb":0.000,"eps":5.59,"epc":16.45}
{"class":"TPV","device":"/dev/ttyACM0","mode":3,"time":"2018-04-10T18:58:15.000Z","ept":0.005,"lat":59.313341667,"lon":18.188285000,"alt":59.400,"epx":2.793,"epy":2.444,"epv":8.223,"track":305.0400,"speed":0.005,"climb":0.000,"eps":5.59,"epc":16.45}
{"class":"TPV","device":"/dev/ttyACM0","mode":3,"time":"2018-04-10T18:58:16.000Z","ept":0.005,"lat":59.313341667,"lon":18.188285000,"alt":59.400,"epx":2.793,"epy":2.444,"epv":8.223,"speed":0.000,"climb":0.000,"eps":5.59,"epc":16.45}
{"class":"TPV","device":"/dev/ttyACM0","mode":3,"time":"2018-04-10T18:58:16.000Z","ept":0.005,"lat":59.313341667,"lon":18.188285000,"alt":59.400,"epx":2.793,"epy":2.444,"epv":8.223,"track":305.0400,"speed":0.005,"climb":0.000,"eps":5.59,"epc":16.45}
